{"type": "FeatureCollection", "id": "http://atlantgis.squirrel.link/data/Point_collection", "name": "Point Instances Collection", "features": [{"type": "Feature", "id": "http://atlantgis.squirrel.link/data/site/D_geom", "name": "Geometry of AtlantGIS Site D: Euaimon (site:D_geom)", "dateprops": [], "properties": {}, "geometry": {"type": "Point", "coordinates": [-15.371528093603208, 35.469127902608804], "crs": "4326"}}, {"type": "Feature", "id": "http://atlantgis.squirrel.link/data/site/C_geom", "name": "Geometry of AtlantGIS Site C: Ampheres (site:C_geom)", "dateprops": [], "properties": {}, "geometry": {"type": "Point", "coordinates": [-15.217615254608273, 35.492712526968674], "crs": "4326"}}, {"type": "Feature", "id": "http://atlantgis.squirrel.link/data/site/H_geom", "name": "H_geom (site:H_geom)", "dateprops": [], "properties": {}, "geometry": {"type": "Point", "coordinates": [-14.930234892454264, 35.553705947902735], "crs": "4326"}}, {"type": "Feature", "id": "http://atlantgis.squirrel.link/data/site/J_geom", "name": "J_geom (site:J_geom)", "dateprops": [], "properties": {}, "geometry": {"type": "Point", "coordinates": [-14.83349156013882, 35.68217752456819], "crs": "4326"}}, {"type": "Feature", "id": "http://atlantgis.squirrel.link/data/site/E_geom", "name": "Geometry of AtlantGIS Site E: Mneseus (site:E_geom)", "dateprops": [], "properties": {}, "geometry": {"type": "Point", "coordinates": [-15.518729450350849, 35.59317541219059], "crs": "4326"}}, {"type": "Feature", "id": "http://atlantgis.squirrel.link/data/site/F_geom", "name": "Geometry of AtlantGIS Site F: Autochthon (site:F_geom)", "dateprops": [], "properties": {}, "geometry": {"type": "Point", "coordinates": [-15.456620280793723, 35.706870795205106], "crs": "4326"}}, {"type": "Feature", "id": "http://atlantgis.squirrel.link/data/site/B_geom", "name": "Geometry of AtlantGIS Site B: Eumelos Gadeiros (site:B_geom)", "dateprops": [], "properties": {}, "geometry": {"type": "Point", "coordinates": [-15.097823661232606, 35.617442563836114], "crs": "4326"}}, {"type": "Feature", "id": "http://atlantgis.squirrel.link/data/site/G_geom", "name": "G_geom (site:G_geom)", "dateprops": [], "properties": {}, "geometry": {"type": "Point", "coordinates": [-15.082751326646484, 35.499733072205636], "crs": "4326"}}, {"type": "Feature", "id": "http://atlantgis.squirrel.link/data/site/I_geom", "name": "I_geom (site:I_geom)", "dateprops": [], "properties": {}, "geometry": {"type": "Point", "coordinates": [-14.68696255799825, 35.6089337422779], "crs": "4326"}}, {"type": "Feature", "id": "http://atlantgis.squirrel.link/data/site/A_geom", "name": "Geometry of AtlantGIS Site A: Atlas (site:A_geom)", "dateprops": [], "properties": {}, "geometry": {"type": "Point", "coordinates": [-15.302889902401944, 35.59993416253471], "crs": "4326"}}], "numberMatched": 10, "numberReturned": 10, "bbox": [-15.518729450350849, 35.469127902608804, -14.68696255799825, 35.706870795205106], "crs": "http://www.opengis.net/def/crs/EPSG/0/4326"}